City_ID,City,Country,Max Temp,Current Description,Lat,Lng,Hotel Name
0,Cape Town,ZA,57.61,clear sky,-33.9258,18.4232,Southern Sun Waterfront Cape Town
1,Hilo,US,75.61,mist,19.7297,-155.09,Hilo Hawaiian Hotel
3,Rikitea,PF,71.51,few clouds,-23.1203,-134.9692,People ThankYou
6,Agadir,MA,64.85,clear sky,30.4202,-9.5982,Iberostar Founty Beach
7,San Luis De La Paz,MX,68.7,clear sky,21.3,-100.5167,Hotel Real San Luis
9,Khatanga,RU,59.74,broken clouds,71.9667,102.5,"Gostinitsa ""Zapolyar'ye"""
12,Nikolskoye,RU,63.81,overcast clouds,59.7035,30.7861,Tourist House - Sablino
13,San Cristobal,VE,69.98,overcast clouds,7.7669,-72.225,Posada Villaven C.A.
21,At-Bashi,KG,70.45,clear sky,41.1702,75.8106,Hostel At-Bashy
22,Coolum Beach,AU,70.34,broken clouds,-26.5333,153.1,Palmer Coolum Resort
23,Urengoy,RU,51.12,light rain,65.9667,78.3667,Gostinnitsa Medveditsa
24,Hobart,AU,55.26,broken clouds,-42.8794,147.3294,Mantra on Collins Hobart
25,Kodiak,US,56.71,clear sky,57.79,-152.4072,Best Western Kodiak Inn And Convention Center
29,Tuktoyaktuk,CA,50.0,broken clouds,69.4541,-133.0374,End of The Road Ltd.
30,Maneadero,MX,67.1,overcast clouds,31.7167,-116.5667,Casa De Thompson
32,Tura,IN,79.52,light rain,25.5198,90.2201,Hotel RIKMAN Continental
33,Corner Brook,CA,60.96,clear sky,48.9667,-57.9484,Glynmill Inn
37,Port Lincoln,AU,59.86,broken clouds,-34.7333,135.8667,Port Lincoln Hotel
39,Derzhavinsk,KZ,62.98,clear sky,51.1,66.3167,Ooo.khim Baza
40,Kenai,US,65.03,scattered clouds,60.5544,-151.2583,Aspen Extended Stay Suites
41,Tiksi,RU,56.1,broken clouds,71.6872,128.8694,Arktika
43,Bredasdorp,ZA,52.92,overcast clouds,-34.5322,20.0403,Bredasdorp Country Manor
44,Butaritari,KI,78.96,moderate rain,3.0707,172.7902,Isles Sunset Lodge
45,Sechura,PE,67.12,clear sky,-5.5569,-80.8222,Hospedaje Costa Bella
47,Sao Joao Da Barra,BR,69.66,clear sky,-21.6403,-41.0511,Pousada Porto De Canoas
49,Mazyr,BY,61.27,broken clouds,52.0495,29.2456,Euro Mini-Hotel
50,Port-Gentil,GA,75.33,overcast clouds,-0.7193,8.7815,Fengshui Residence
51,Poum,NC,73.18,scattered clouds,-20.2333,164.0167,Gîte kajeon
57,Cabedelo,BR,72.27,scattered clouds,-6.9811,-34.8339,Hotel Pigalle
58,Kaitangata,NZ,51.93,light rain,-46.2817,169.8464,Kaitangata Motor Camp
59,Sao Filipe,CV,73.71,broken clouds,14.8961,-24.4956,Hotel Xaguate
61,Tazovskiy,RU,50.86,overcast clouds,67.4667,78.7,TazHostel
63,Busselton,AU,65.05,clear sky,-33.65,115.3333,Observatory Guest House
64,Hermanus,ZA,52.81,overcast clouds,-34.4187,19.2345,Misty Waves Boutique Hotel
65,Kargil,IN,67.06,broken clouds,34.5667,76.1,Caravan Sarai
66,Bubaque,GW,79.16,light rain,11.2833,-15.8333,"Casa Dora, Bubaque"
67,Vao,NC,70.72,overcast clouds,-22.6667,167.4833,Hotel Kou-Bugny
69,Kruisfontein,ZA,57.88,overcast clouds,-34.0033,24.7314,Oyster Bay House Rental
70,Hofn,IS,51.3,few clouds,64.2539,-15.2082,Hótel Höfn
71,Atuona,PF,78.28,clear sky,-9.8,-139.0333,Villa Enata
72,Winfield,US,78.82,clear sky,37.2398,-96.9956,Sonner Motor Inn
80,Port Alfred,ZA,59.74,scattered clouds,-33.5906,26.891,The Halyards Hotel
81,Port Hardy,CA,62.78,broken clouds,50.6996,-127.4199,Airport Inn
82,Beringovskiy,RU,50.09,overcast clouds,63.05,179.3167,Beringgorski
84,Puerto Ayora,EC,71.55,clear sky,-0.7393,-90.3518,Finch Bay Galapagos Hotel
85,Aguimes,ES,69.66,few clouds,27.9054,-15.4461,Hotel Villa de Aguimes
87,Bonthe,SL,75.76,light rain,7.5264,-12.505,Bonthe Holiday Village
88,Ilulissat,GL,50.02,overcast clouds,69.2167,-51.1,Hotel Arctic
90,Nelson Bay,AU,67.95,clear sky,-32.7167,152.15,Mantra Nelson Bay
91,Caorle,IT,74.59,overcast clouds,45.5966,12.8758,Maxim
92,Vestmannaeyjar,IS,50.67,overcast clouds,63.4427,-20.2734,Glamping & Camping
93,Rio Grande,BR,62.49,clear sky,-32.035,-52.0986,Hotel Atlântico Rio Grande
94,Humaita,BR,77.36,clear sky,-7.5061,-63.0208,Corrêa Hotel
98,Avarua,CK,77.05,broken clouds,-21.2078,-159.775,Paradise Inn
99,Batagay,RU,69.33,overcast clouds,67.6333,134.6333,Gostinitsa Ki'ileekh
100,Ribeira Grande,PT,70.23,clear sky,38.5167,-28.7,Quinta da Meia Eira
101,Pisco,PE,62.65,clear sky,-13.7,-76.2167,Hotel San Isidro Oficial
102,Pizarro,CO,75.34,light rain,4.9533,-77.366,Hotel Limonar
104,Thompson,CA,59.16,scattered clouds,55.7435,-97.8558,Burntwood Hotel
105,Coquimbo,CL,53.33,clear sky,-29.9533,-71.3436,Punto de encuentro
106,Klaksvik,FO,50.92,overcast clouds,62.2266,-6.589,Airbnb rooms
111,Lethem,GY,74.57,overcast clouds,3.3803,-59.7968,Savannah Inn
113,Jamestown,US,71.24,clear sky,42.097,-79.2353,Hampton Inn & Suites Jamestown
114,Luangwa,ZM,53.26,clear sky,-15.6167,30.4167,Gerasimos Safari Lodge
115,Kuusamo,FI,57.24,few clouds,65.9667,29.1833,Hotel Kuusanka
116,Ponta Do Sol,PT,75.0,clear sky,32.6667,-17.1,Hotel do Campo
117,Nynashamn,SE,59.11,overcast clouds,58.9034,17.9479,Nynäs Havsbad
120,Altay,CN,75.94,broken clouds,47.8667,88.1167,Jinqiao Hotel
123,Camacha,PT,71.53,broken clouds,33.0833,-16.3333,Hotel Porto Santo & Spa
124,Norman Wells,CA,68.04,smoke,65.282,-126.8329,Heritage Hotel
126,Dawson Creek,CA,69.15,few clouds,55.7666,-120.2362,Peace Villa Motel
130,Queanbeyan,AU,52.39,light intensity drizzle,-35.35,149.2333,Parkway Motel
133,Qasigiannguit,GL,50.25,overcast clouds,68.8193,-51.1922,Hotel Diskobay
135,East London,ZA,58.69,scattered clouds,-33.0153,27.9116,Tu Casa
138,Mount Gambier,AU,57.11,light rain,-37.8333,140.7667,The Commodore
139,Chuy,UY,58.37,clear sky,-33.6971,-53.4616,Nuevo Hotel Plaza
140,Yulara,AU,69.64,clear sky,-25.2406,130.9889,Desert Gardens Hotel - Ayers Rock Resort
141,Caravelas,BR,68.83,clear sky,-17.7125,-39.2481,Pousada dos Navegantes
142,Barneveld,NL,64.13,broken clouds,52.1333,5.5833,Pension Nooitgedacht
143,Grand Gaube,MU,70.2,clear sky,-20.0064,57.6608,Veranda Paul et Virginie Hotel & Spa
144,Arraial Do Cabo,BR,69.8,clear sky,-22.9661,-42.0278,Pousada Porto Praia
145,Tefe,BR,78.24,overcast clouds,-3.3542,-64.7114,Aracati Hotel
146,Esperance,AU,58.84,clear sky,-33.8667,121.9,Hospitality Esperance
147,Torbay,CA,55.76,overcast clouds,47.6666,-52.7314,Gallows Cove
148,Lagoa,PT,68.85,clear sky,39.05,-27.9833,Casa Das Faias
149,Sfantu Gheorghe,RO,63.27,clear sky,45.8667,25.7833,Hotel Park
151,Baglung,NP,72.19,light rain,28.2719,83.5898,"Hotel Peace Palace, Baglung, Nepal"
152,Esso,RU,76.77,few clouds,55.9333,158.7,Paramushir Tur
153,Sungaipenuh,ID,73.81,scattered clouds,-2.0833,101.3833,Hotel Jaya Wisata 2
157,Veraval,IN,79.03,moderate rain,20.9,70.3667,Lords Inn Somnath
158,Carnarvon,AU,64.47,broken clouds,-24.8667,113.6333,Hospitality Carnarvon
159,Normandin,CA,66.51,overcast clouds,48.8333,-72.5321,Chambres MB Normandin (Lac St -Jean)
160,Ahipara,NZ,59.11,broken clouds,-35.1667,173.1667,Ahipara Holiday Park
161,Castro,BR,54.99,clear sky,-24.7911,-50.0119,CHACARA BAILLY
162,Deputatskiy,RU,57.31,overcast clouds,69.3,139.9,Baza Otdykha
164,Xuddur,SO,67.01,scattered clouds,4.1213,43.8894,Banjanay Hotel
165,Airai,TL,74.84,broken clouds,-8.9266,125.4092,Juvinal Martin
167,Glace Bay,CA,61.9,scattered clouds,46.1969,-59.957,Cedarwoods Bed & Breakfast
169,Margate,GB,64.31,overcast clouds,51.3813,1.3862,Premier Inn Margate hotel
170,Skibbereen,IE,62.4,overcast clouds,51.55,-9.2667,The West Cork Hotel
171,Ucluelet,CA,79.05,few clouds,48.9329,-125.5528,Black Rock Oceanfront Resort
173,Nemuro,JP,75.63,clear sky,43.3236,145.575,Hotel Nemuro Kaiyoutei
175,Yakeshi,CN,69.03,overcast clouds,49.2833,120.7333,Longhua Hotel
176,Gualeguaychu,AR,57.04,overcast clouds,-33.0094,-58.5172,Hotel Los Angeles
178,Kumta,IN,79.18,overcast clouds,14.4167,74.4,Hotel Vaibhav Palace
179,Vila Velha,BR,64.35,clear sky,-20.3297,-40.2925,Quality Suites Vila Velha
180,Hof,DE,63.5,few clouds,50.3167,11.9167,Hotel Burghof
181,Itaituba,BR,75.36,overcast clouds,-4.2761,-55.9836,Hotel Campos
182,Heihe,CN,77.58,overcast clouds,50.2441,127.4902,Hotel Strannik
183,Andilamena,MG,55.76,overcast clouds,-17.0167,48.5833,Police men home Andilamina
186,Codrington,AU,57.09,overcast clouds,-38.2667,141.9667,Codrington Gardens Bed And Breakfast
187,Skjervoy,NO,50.97,light rain,70.0311,20.9714,Skjervøy Byggeservice AS
188,Ronne,DK,69.71,overcast clouds,55.1009,14.7066,Griffen Spahotel
189,Geraldton,AU,63.12,overcast clouds,-28.7667,114.6,Broadwater Mariner Resort
192,Mahebourg,MU,70.09,few clouds,-20.4081,57.7,Shandrani Beachcomber Resort & Spa
193,San Quintin,MX,68.52,overcast clouds,30.4833,-115.95,Don Eddie's Sport Fishing Center
197,Alice Springs,AU,74.21,clear sky,-23.7,133.8833,Desert Palms Alice Springs
199,Isangel,VU,75.33,overcast clouds,-19.55,169.2667,Tanna Lodge
200,Road Town,VG,78.21,light rain,18.4167,-64.6167,"ZINGARA 76ft Catamaran, full crew-all included"
201,Yellowknife,CA,59.52,few clouds,62.456,-114.3525,The Explorer Hotel
202,Bethel,US,75.04,light rain,41.3712,-73.414,Courtyard by Marriott Danbury
203,Amqui,CA,64.89,overcast clouds,48.4638,-67.4313,Hôtel Sélectôtel Amqui
204,Saint-Philippe,RE,67.55,broken clouds,-21.3585,55.7679,"Chambres d'hôte ""La Trinité"""
205,Castle Bruce,DM,79.48,overcast clouds,15.4333,-61.2667,Sunrise Farm Cottages
207,Kisangani,CD,73.35,overcast clouds,0.5167,25.2,Grand Ramela Hotel
209,Cherskiy,RU,54.93,clear sky,68.75,161.3,Gostinitsa
210,Ketchikan,US,63.07,light rain,55.3422,-131.6461,Snows Cove Lodge
211,Semey,KZ,77.22,scattered clouds,50.4111,80.2275,Grand Hotel Semey
212,Batemans Bay,AU,62.91,broken clouds,-35.7167,150.1833,Batemans Bay Marina Resort
213,Chicama,PE,63.14,few clouds,-7.8447,-79.1469,Balihai Bungalows
215,Lillesand,NO,69.89,overcast clouds,58.2488,8.3778,Lillesand Hotel Norway
216,Port Hedland,AU,78.85,broken clouds,-20.3167,118.5667,The Esplanade Hotel
218,Port Elizabeth,ZA,60.1,overcast clouds,-33.918,25.5701,39 On Nile Guest House
220,Samarai,PG,79.68,overcast clouds,-10.6167,150.6667,Nuli Sapi
221,Yar,RU,51.98,overcast clouds,58.249,52.1026,Комнаты отдыха на ж/д вокзале
222,Dudinka,RU,60.66,broken clouds,69.4058,86.1778,Hotel Viktoria
225,Bambous Virieux,MU,70.05,few clouds,-20.3428,57.7575,Casa Tia Villa
226,Harper,LR,75.76,broken clouds,4.375,-7.7169,Screensaver
227,Semily,CZ,68.61,overcast clouds,50.6019,15.3355,Hotel Municipal House
228,Nueva Loja,EC,69.06,overcast clouds,0.0847,-76.8828,Limoncocha Great Hotel
229,Joaquim Gomes,BR,71.85,scattered clouds,-9.1373,-35.7519,Hotel Seu Cara Joaquim Gomes
231,Yarmouth,US,73.99,overcast clouds,41.7057,-70.2286,Blue Rock Resort
235,Pangnirtung,CA,50.83,overcast clouds,66.1451,-65.7125,Kilabuk Lodge
237,La Union,PE,68.16,few clouds,-5.4,-80.75,Los Portales
240,Cayenne,GF,77.09,mist,4.9333,-52.3333,Hôtel Le Dronmi
243,Touros,BR,74.3,clear sky,-5.1989,-35.4608,INN NEW HORIZON
245,Devils Lake,US,78.94,clear sky,48.1128,-98.8651,"Holiday Inn Express Devils Lake, an IHG Hotel"
246,Itarema,BR,77.72,clear sky,-2.9248,-39.9167,"Sea Lounge! Bar, Club & Restaurant"
247,Pitimbu,BR,72.19,scattered clouds,-7.4706,-34.8086,Reserva do Abiaí
251,Shizunai,JP,73.35,few clouds,42.3339,142.3669,Shizunai Eclipse Hotel
252,Talnakh,RU,59.67,overcast clouds,69.4865,88.3972,Talnakh Hotel
254,Teruel,ES,60.76,moderate rain,40.6667,-0.6667,La Parra
255,Yambio,SS,66.9,light rain,4.5721,28.3955,Naivasha Hotel
257,Broadstairs,GB,64.2,overcast clouds,51.3591,1.4394,Royal Albion Hotel
258,Wynyard,AU,54.25,light rain,-41.0,145.7167,Burnie Airport Motel
259,Sorland,NO,54.14,overcast clouds,67.667,12.6934,Sjybrygga fiskecamp
260,Saint Albans,GB,63.1,overcast clouds,51.75,-0.3333,Quality Hotel St. Albans
262,Divnogorsk,RU,73.89,scattered clouds,55.9594,92.3619,Дивный
265,Gat,IL,79.48,few clouds,31.61,34.7642,OlusHome
267,Saint-Pierre,RE,67.64,clear sky,-21.3393,55.4781,Lindsey Hôtel
268,Karratha,AU,77.04,broken clouds,-20.7377,116.8463,ibis Styles Karratha
270,Sudbury,CA,72.46,clear sky,46.49,-80.99,Travelway Inn Sudbury
273,Erzin,TR,77.72,clear sky,36.9559,36.2,Artemis Otel
275,Aklavik,CA,56.23,overcast clouds,68.2191,-135.0107,Aklavik Inn
276,Saint-Joseph,RE,66.56,scattered clouds,-21.3667,55.6167,"""Plantation Bed and Breakfast"
278,Fethiye,TR,75.07,clear sky,36.6217,29.1164,Club & Hotel Letoonia
281,Kaeo,NZ,59.54,few clouds,-35.1,173.7833,Bushido Lodge
284,New Norfolk,AU,54.9,overcast clouds,-42.7826,147.0587,The Shingles Riverside Cottages
286,Balsas,BR,77.02,clear sky,-7.5325,-46.0356,Novo Hotel
287,Carutapera,BR,75.83,few clouds,-1.195,-46.02,Lidera
289,Inuvik,CA,56.26,overcast clouds,68.3499,-133.7218,Nova Inn Inuvik
290,High Level,CA,68.11,broken clouds,58.5169,-117.136,Days Inn by Wyndham High Level
291,Vila Franca Do Campo,PT,68.41,broken clouds,37.7167,-25.4333,Pestana Bahia Praia
300,Ambatondrazaka,MG,56.34,light rain,-17.8333,48.4167,MANAMBINA Hotel
303,Puerto Cabezas,NI,77.83,overcast clouds,14.0351,-83.3888,Cabaña Caribe
305,Mantua,IT,74.91,overcast clouds,45.1667,10.7833,Hotel la Favorita
306,Khani,GE,58.57,scattered clouds,41.9563,42.9566,კურორტი ზეკარი/Resort Zekari
307,Imbituba,BR,64.81,few clouds,-28.24,-48.6703,Praia Hotel Imbituba
309,Kismayo,SO,74.98,light rain,-0.3582,42.5454,Agan-Hotel
310,Laranjeiras Do Sul,BR,56.59,light rain,-25.4078,-52.4161,Hotel Palmeiras
311,Dalby,AU,62.98,broken clouds,-27.1833,151.2667,Kobbers Motor Inn Dalby
312,Flinders,AU,63.81,broken clouds,-34.5833,150.8552,Shellharbour Resort & Conference Centre
313,Petropavlovsk-Kamchatskiy,RU,77.59,clear sky,53.0452,158.6483,The Hotel Petropavlovsky
317,Omsukchan,RU,54.0,light rain,62.5333,155.8,Zori
318,Valparaiso,CL,54.48,broken clouds,-33.0393,-71.6273,Hotel Ultramar
320,Atherton,GB,62.29,clear sky,53.5237,-2.4935,The Lion Inn
323,Hastings,GB,64.33,overcast clouds,50.8552,0.5729,Zanzibar Hotel
324,Nantucket,US,73.99,overcast clouds,41.2835,-70.0995,Jared Coffin House
331,Chiang Khong,TH,77.32,overcast clouds,20.2613,100.4046,Chiangkhong Green Inn Resident
332,Peniche,PT,69.73,scattered clouds,39.3558,-9.3811,Hotel Star inn Peniche
335,Vrangel,RU,78.94,scattered clouds,42.7297,133.0839,"Отель ""БАЛИ"""
337,Old Saybrook,US,75.4,few clouds,41.2918,-72.3762,Saybrook Point Resort & Marina - Luxury Connecticut Oceanside Hotel
340,La Ronge,CA,61.05,broken clouds,55.1001,-105.2842,Northland Motor Hotel
344,Svetlogorsk,BY,60.85,scattered clouds,52.6333,29.7333,Hotel Svetlogorsk JBIK
346,Bilibino,RU,61.81,scattered clouds,68.0546,166.4372,Gostinitsa Severyanka
347,College,US,71.26,broken clouds,64.8569,-147.8028,Pike's Waterfront Lodge
352,Navalgund,IN,74.3,overcast clouds,15.5667,75.3667,Naveen Park Hotel
356,Lancut,PL,70.79,clear sky,50.0687,22.2291,VIS a VIS
358,Dondaicha,IN,78.15,overcast clouds,21.3333,74.5667,Mahavir Farm House
361,Haines Junction,CA,62.55,overcast clouds,60.7522,-137.5108,Parkside Inn
363,Salalah,OM,78.89,broken clouds,17.0151,54.0924,HAMDAN PLAZA HOTEL SALALAH
364,Kaabong,UG,61.11,overcast clouds,3.4836,34.1492,Rock Motel Ltd
366,Mitsamiouli,KM,76.1,light rain,-11.3847,43.2844,Foyer ADM
368,Savelugu,GH,75.76,broken clouds,9.6244,-0.8253,Yoo Naa's Palace
369,Axim,GH,74.61,clear sky,4.8699,-2.2405,AXIM BEACH RESORT AND SPA
370,Troitsko-Pechorsk,RU,52.56,overcast clouds,62.7084,56.1964,Pechora Gostinitsa
371,Sioux Lookout,CA,70.18,smoke,50.1001,-91.917,Knobby's Fly-In Camps
373,Antofagasta,CL,56.48,broken clouds,-23.65,-70.4,"Holiday Inn Express Antofagasta, an IHG Hotel"
374,Cookeville,US,77.85,clear sky,36.1628,-85.5016,La Quinta Inn & Suites by Wyndham Cookeville
377,Oussouye,SN,75.88,overcast clouds,12.485,-16.5469,Auberge du Routard
378,Asau,RO,64.76,clear sky,46.4333,26.4,Casa Mika Ciobanus
380,Kondinskoye,RU,54.0,scattered clouds,59.6481,67.41,Gostinitsa
381,Benguela,AO,68.68,clear sky,-12.5763,13.4055,Hotel Praia Morena
384,Shahr-E Babak,IR,74.35,clear sky,30.1165,55.1186,Duna Ecolodge
385,Formosa,AR,71.58,overcast clouds,-26.1775,-58.1781,Hotel Portal del Sol
386,Yarim,YE,57.29,overcast clouds,14.298,44.3779,وليد المسوري ابو اسد
389,Bathsheba,BB,77.61,light rain,13.2167,-59.5167,Atlantis Hotel
392,Cuamba,MZ,54.16,few clouds,-14.8031,36.5372,Hotel Vision
393,Jaragua,BR,66.42,clear sky,-15.7569,-49.3344,Danbury Hotel
397,Minsk,BY,55.15,few clouds,53.9,27.5667,Minsk Hotel
398,Woodward,US,79.83,clear sky,36.4337,-99.3904,"Holiday Inn Express & Suites Woodward Hwy 270, an IHG Hotel"
399,Noumea,NC,78.78,overcast clouds,-22.2763,166.4572,Hôtel Le Lagon
400,Plettenberg Bay,ZA,61.23,overcast clouds,-34.0527,23.3716,Thanda Vista B&B
402,Mahon,ES,70.36,clear sky,39.8885,4.2658,ARTIEM Capri
403,Ulaanbaatar,MN,66.33,scattered clouds,47.9077,106.8832,The Blue Sky Hotel and Tower
404,Durban,ZA,53.02,clear sky,-29.8579,31.0292,Hilton Durban
405,Perth,AU,65.66,few clouds,-31.9333,115.8333,Beatty Lodge
410,Souillac,MU,70.18,few clouds,-20.5167,57.5167,Shanti Maurice Resort & Spa
413,Andenes,NO,52.47,mist,69.3143,16.1194,Hotell Marena
414,Powell River,CA,79.92,scattered clouds,49.8496,-124.5361,Rodmay Hotel
416,Faya,SA,64.51,overcast clouds,18.3851,42.4509,املاك خالد الشعشوع
419,Nicoya,CR,76.55,overcast clouds,10.1483,-85.452,Guayacan Real
421,Havre-Saint-Pierre,CA,61.16,clear sky,50.2334,-63.5986,Auberge Niapiskau
422,Emerald,AU,69.35,scattered clouds,-23.5333,148.1667,The Irish Village
424,Macas,EC,65.77,scattered clouds,-2.3167,-78.1167,Casa Upano
426,Ayan,RU,65.26,scattered clouds,56.45,138.1667,Gostinitsa
427,Richards Bay,ZA,54.68,clear sky,-28.783,32.0377,BON Hotel Waterfront Richards Bay
428,Joshimath,IN,76.28,overcast clouds,30.5667,79.5667,Shivalik Camps & Resort
432,Little Current,CA,73.45,clear sky,45.9793,-81.9248,Hawberry Motel
434,Pallasovka,RU,63.79,clear sky,50.05,46.8833,"Hotel ""Natalia"""
435,Salamiyah,SY,74.95,clear sky,35.0113,37.0532,Gondolas Forum grandchildren and grandparents
436,Inyonga,TZ,52.18,clear sky,-6.7167,32.0667,Eden Rock Lodge
437,Muros,ES,64.83,scattered clouds,42.7762,-9.0603,Apartment Av. Castelao
438,Den Helder,NL,64.98,mist,52.9599,4.7593,Hotel Den Helder
439,Fairbanks,US,70.14,overcast clouds,64.8378,-147.7164,Westmark Fairbanks Hotel & Conference Center
440,Ahtopol,BG,64.87,clear sky,42.1,27.95,Agata Beach Hotel
443,Riohacha,CO,78.35,overcast clouds,11.5444,-72.9072,Hotel Taroa
446,Santa Cruz,BO,76.46,few clouds,-17.8,-63.1667,Aviador Hotel Boutique
447,Cap-Aux-Meules,CA,60.85,few clouds,47.3821,-61.8597,Auberge Madeli
448,Severo-Kurilsk,RU,59.34,broken clouds,50.6789,156.125,Kak Doma
450,Ambilobe,MG,59.36,scattered clouds,-13.2,49.05,Hôtel & Restaurant DIANA Ambilobe
451,Maragogi,BR,73.54,few clouds,-9.0122,-35.2225,Salinas do Maragogi All Inclusive Resort
454,Tamale,GH,74.91,overcast clouds,9.4008,-0.8393,Tap Hotel
455,Encantado,BR,69.04,moderate rain,-29.2361,-51.8697,Tri Hotel Encantado
456,Mirador,BR,71.46,scattered clouds,-6.3708,-44.3631,Pousada Restaurante e Pizzaria Povo
457,Sitka,US,54.23,light rain,57.0531,-135.33,Westmark Sitka
459,Ipixuna,BR,78.75,clear sky,-1.7625,-48.8043,Casa da Oscarina
460,Manzhouli,CN,68.94,scattered clouds,49.6,117.4333,Angala International Youth Hostel
462,Misratah,LY,79.41,clear sky,32.3754,15.0925,فندق الماسة
465,Miranda,CO,66.33,overcast clouds,3.2499,-76.2281,unidiversidad organica la utopia
466,Kyshtovka,RU,57.49,overcast clouds,56.555,76.6271,Uyutnaya Mini-Hotel
467,Otradnoye,RU,63.97,overcast clouds,59.7775,30.8181,Baza otdikha Petrushinsky Khutor
468,Roald,NO,63.34,few clouds,62.5833,6.1333,Flem Cabins
469,Arona,ES,69.03,clear sky,28.0996,-16.681,Paradise Court
470,Pokrovsk,UA,65.14,clear sky,48.282,37.1758,Druzhba
471,Mozelos,PT,64.27,clear sky,41.8677,-8.3978,Ribeira Collection Hotel by Piamonte Hotels
472,Takaka,NZ,56.97,overcast clouds,-40.85,172.8,Golden Bay Motels
473,Nykoping,SE,58.42,clear sky,58.753,17.0079,Clarion Collection Hotel Kompaniet
475,Berdsk,RU,74.8,overcast clouds,54.7551,83.0967,Mini-Hotel Kalinina 9A
477,Toamasina,MG,62.6,moderate rain,-18.1667,49.3833,Hotel H1
480,Yetkul,RU,55.38,clear sky,54.8221,61.588,Баден-Баден Термы Еткуль
481,Nova Ushytsya,UA,63.68,few clouds,48.8372,27.2743,"Mini-Hotelʹ ""Edem"""
483,Novaya Malykla,RU,59.99,overcast clouds,54.2,49.95,Gostinitsa
484,Salta,AR,56.57,scattered clouds,-24.7859,-65.4117,Hotel Alejandro I
486,Cotonou,BJ,75.81,scattered clouds,6.3654,2.4183,Novotel Cotonou Orisha
487,Faanui,PF,78.06,scattered clouds,-16.4833,-151.75,Bora-Bora Pearl Beach Resort & Spa
488,Maniwaki,CA,63.14,scattered clouds,46.3834,-75.966,Centre Chateau Logue
489,Verkhnyaya Toyma,RU,55.56,overcast clouds,62.2349,44.9985,Gostinitsa Sportivnaya
492,Nadym,RU,50.79,overcast clouds,65.5333,72.5167,Apartment on Zvereva
493,Scarborough,GB,60.53,overcast clouds,54.2797,-0.4044,Ambassador Roomzzz
494,Terney,RU,79.77,overcast clouds,45.0503,136.6092,"Hotel ""Ternay"""
495,Hay River,CA,60.78,few clouds,60.8156,-115.7999,Ptarmigan Inn
496,Saint-Gaudens,FR,63.34,overcast clouds,43.0833,0.6667,L'Ardiégeoise
497,Ulaangom,MN,68.13,overcast clouds,49.9811,92.0667,Achit Nuur Hotel & Restaurant
499,Kwinana,AU,65.8,light rain,-32.25,115.7667,Rockingham Apartments
500,Garowe,SO,74.46,broken clouds,8.4054,48.4845,Curubo Hotel
503,Ilo,PE,59.97,broken clouds,-17.6394,-71.3375,Torreblanca Hotel
504,Lasa,IT,62.06,light rain,46.6166,10.7002,Pension Feldgärtenhof
508,Santa Cruz De La Palma,ES,71.74,overcast clouds,28.6835,-17.7642,H10 Taburiente Playa
513,Pacific Grove,US,78.26,broken clouds,36.6177,-121.9166,Lovers Point Inn
515,Hinton,CA,61.11,overcast clouds,53.4001,-117.5857,Econo Lodge & Suites
519,Jalu,LY,76.24,clear sky,29.0331,21.5482,صاحبة الفخامة
524,El Alto,PE,64.36,overcast clouds,-4.2714,-81.2147,Black Marlin Restaurant & Hospedaje
525,Nisia Floresta,BR,74.21,few clouds,-6.0911,-35.2086,Rancho Crepusculo
526,Maracacume,BR,72.0,few clouds,-2.0428,-45.9592,Hotel Ramos
527,Tahe,CN,74.3,few clouds,52.3333,124.7333,塔河宾馆
529,Dali,CN,71.69,clear sky,25.7,100.1833,Dali Travelling With Hostel
534,Bredy,RU,57.63,clear sky,52.4153,60.3411,Individual'nyy Predprinimatel' Rakhmanin Andrey Aleksandrovich
537,Piacabucu,BR,72.72,broken clouds,-10.4056,-36.4344,Piaçabuçu News
543,North Bend,US,73.24,mist,43.4065,-124.2243,Red Lion Hotel Coos Bay
544,Santiago,CL,53.85,broken clouds,-33.4569,-70.6483,Che Lagarto Hostel Santiago
545,Byron Bay,AU,69.06,scattered clouds,-28.65,153.6167,Backpackers Inn on the Beach
549,San Miguel,SV,74.52,scattered clouds,13.4833,-88.1833,Hotel Tropico Inn San Miguel
550,Guasdualito,VE,73.15,scattered clouds,7.2424,-70.7324,Hotel Cuibas
552,Paris,FR,64.26,clear sky,48.8534,2.3488,Hôtel Britannique - Paris Centre
553,Hualmay,PE,63.39,few clouds,-11.0964,-77.6139,Hotel Villa Kitzia Huacho
556,Vila Do Maio,CV,75.88,overcast clouds,15.1333,-23.2167,Hotel Marilu
559,Moron,AR,55.15,clear sky,-34.6534,-58.6198,Hotel Morón
562,Peace River,CA,73.71,few clouds,56.2501,-117.286,BCMInns - Peace River
563,San Vicente,AR,68.27,broken clouds,-26.6167,-54.1333,Complejo Turístico Farelluk
564,Pasighat,IN,79.47,light rain,28.0667,95.3333,Siang Guest House
565,Cidreira,BR,67.53,broken clouds,-30.1811,-50.2056,Hotel Castelo
566,Mwene-Ditu,CD,63.97,few clouds,-7.0,23.45,Hôtel Kamas
569,Mareeba,AU,79.45,scattered clouds,-17.0,145.4333,Trinity Plains Tourist Park
570,Anchorage,US,69.01,clear sky,61.2181,-149.9003,Hotel Captain Cook
571,Port Pirie,AU,62.69,few clouds,-33.1833,138.0167,John Pirie Motor Inn
573,Zaporizhzhya,UA,68.67,clear sky,47.8167,35.1833,Intourist hotel
575,Port Macquarie,AU,67.89,clear sky,-31.4333,152.9167,Rydges Port Macquarie
576,Devecser,HU,67.35,clear sky,47.1032,17.438,Széki tó
579,Lompoc,US,74.79,overcast clouds,34.6391,-120.4579,"Holiday Inn Express Lompoc, an IHG Hotel"
580,Aberdeen,GB,61.48,overcast clouds,57.1437,-2.0981,Premier Inn Aberdeen City Centre hotel
584,Inhambane,MZ,66.27,overcast clouds,-23.865,35.3833,Oceano
585,Quatre Cocos,MU,69.91,clear sky,-20.2078,57.7625,Sunrise Attitude Hotel
587,Cap Malheureux,MU,70.29,clear sky,-19.9842,57.6142,Pereybere Hotel & Spa
588,Olinda,BR,69.53,broken clouds,-8.0089,-34.8553,Hotel Albergue de Olinda
589,Dilla,ET,58.1,overcast clouds,6.41,38.31,Afomiya Pension
590,Thouars,FR,61.72,overcast clouds,46.976,-0.2151,Contact-Hotel-du-Relais Thouars
591,Bartica,GY,75.52,overcast clouds,6.4,-58.6167,Sloth Island Nature Resort
595,Dongsheng,CN,73.51,overcast clouds,39.8161,109.9776,Crowne Plaza Ordos
596,Krasnyy Yar,RU,71.53,clear sky,46.5331,48.3456,Cottege near Ufa
597,Peru,US,77.61,scattered clouds,40.7537,-86.0689,Cole Porter Inn
598,Athens,GR,79.16,clear sky,37.9795,23.7162,Novotel Athenes
599,Kyabram,AU,57.87,overcast clouds,-36.3167,145.05,Kyabram Motor Inn
600,Dauphin,CA,66.34,clear sky,51.1494,-100.0502,Canway Inn & Suites
601,Ciudad Bolivar,VE,75.52,overcast clouds,8.1222,-63.5497,Hotel Edi
602,Pemberton,CA,76.86,scattered clouds,50.3164,-122.8027,Pemberton Valley Lodge
603,Mwense,ZM,52.59,broken clouds,-10.3845,28.698,Mwense Council Guest House
606,Nome,US,51.87,light rain,64.5011,-165.4064,Dredge 7 Inn
607,Marquette,US,71.04,clear sky,46.5333,-87.6335,Al Quaal Lodge
612,Guerrero Negro,MX,70.02,clear sky,27.9769,-114.0611,"Casa Laguna, Bed & Breakfast"
613,Eureka,US,55.92,overcast clouds,40.8021,-124.1637,Eureka Inn Trademark By Wyndham
614,Abha,SA,64.22,clear sky,18.2164,42.5053,Abha Hotel
615,Lac Du Bonnet,CA,74.59,few clouds,50.2536,-96.0612,Casey's Inn Motor Hotel
619,Alta Floresta,BR,72.7,clear sky,-9.8756,-56.0861,Floresta Amazonica Hotel
620,Brigantine,US,78.49,broken clouds,39.4101,-74.3646,Legacy Vacation Resorts Brigantine Beach
621,Krasnoslobodsk,RU,72.55,clear sky,48.7072,44.5714,Mini-hotel Na Allee
622,Oistins,BB,77.09,broken clouds,13.0667,-59.5333,Butterfly Beach Hotel
624,Ornskoldsvik,SE,58.15,broken clouds,63.2909,18.7153,ファーストホテル スタット
625,Biltine,TD,76.59,overcast clouds,14.5333,20.9167,Hôtel Trois Étoiles de Biltine
626,Zhangjiakou,CN,75.74,light rain,40.81,114.8794,Shell Zhangjiakou City Qiaodong District Ginza Hotel
630,Huarmey,PE,64.92,clear sky,-10.0681,-78.1522,Hotel Miramar
631,Povenets,RU,58.32,overcast clouds,62.8487,34.8262,Eko Otel' Bol'shaya Medveditsa
632,Kolo,PL,69.24,clear sky,52.2002,18.6387,Noclegi w Kole
633,Porto Novo,BJ,74.19,scattered clouds,6.4965,2.6036,Tour Eiffel Hotel Benin
636,Sao Gabriel Da Cachoeira,BR,71.83,overcast clouds,-0.1303,-67.0892,Alarne - Área De Lazer Do Alto Rio Negro
642,Bomet,KE,50.61,scattered clouds,-0.7813,35.3416,Mosop Annex club
643,Hobyo,SO,75.56,broken clouds,5.3505,48.5268,Halane Hotel and Restaurent
644,Vlore,AL,76.66,clear sky,40.4667,19.4897,Bologna Hotel
645,Taree,AU,69.06,clear sky,-31.9,152.4667,All Seasons Country Lodge Taree
649,Tual,ID,79.84,overcast clouds,-5.6667,132.75,Grand Vilia Hotel
650,Stromness,GB,57.45,scattered clouds,58.965,-3.296,The Old Smokery
654,Xichang,CN,73.08,scattered clouds,27.8964,102.2634,Xichang ibis Hotel
655,Nanton,CA,79.09,broken clouds,50.3501,-113.7687,Changing Seasons Bed and Breakfast
656,Praia,CV,74.86,overcast clouds,14.9215,-23.5087,LT Aparthotel
658,Fecamp,FR,63.48,overcast clouds,49.7579,0.3746,Hôtel d'Angleterre
659,Hun,LY,76.48,clear sky,29.1268,15.9477,Alrwasi Hotel
660,Toktogul,KG,79.74,clear sky,41.8708,72.9402,KAGAN
661,Valley City,US,79.79,clear sky,46.9233,-98.0032,AmericInn by Wyndham Valley City Conference Center
663,Buritis,BR,63.84,clear sky,-15.6178,-46.4233,Hotel Rainha do Vale
664,Asosa,ET,59.2,light rain,10.0667,34.5333,Blendana Hotel Assosa
665,Kosh-Agach,RU,63.73,clear sky,50.0,88.6667,Fermerskiy Dom v Kosh-Agache
666,San Giovanni In Fiore,IT,64.87,clear sky,39.2633,16.6996,Casa Federico B&B
668,Somerset West,ZA,57.58,overcast clouds,-34.084,18.8211,Lourens River Guesthouse
669,Yar-Sale,RU,51.69,overcast clouds,66.8333,70.8333,Yalemd
671,Sale,MA,72.28,broken clouds,34.0389,-6.8166,Hôtel Mercure Rabat Sheherazade
